{
"type": "FeatureCollection",
"name": "bike_live_stations",
"features": [
{ "type": "Feature", "properties": { "Station Name": "Julius-Raab-Platz", "empty_slots": 12.0, "free_bikes": 5, "latitude": 48.211544, "longitude": 16.382374, "timestamp": "2023-03-05T20:59:41.038000Z", "Unique ID": "68577704" }, "geometry": { "type": "Point", "coordinates": [ 16.382374, 48.211544 ] } },
{ "type": "Feature", "properties": { "Station Name": "Hoher Markt", "empty_slots": 1.0, "free_bikes": 24, "latitude": 48.210666, "longitude": 16.372983, "timestamp": "2023-03-05T20:59:41.048000Z", "Unique ID": "68577989" }, "geometry": { "type": "Point", "coordinates": [ 16.372983, 48.210666 ] } },
{ "type": "Feature", "properties": { "Station Name": "Oper", "empty_slots": 6.0, "free_bikes": 15, "latitude": 48.202683, "longitude": 16.369702, "timestamp": "2023-03-05T20:59:41.049000Z", "Unique ID": "68578292" }, "geometry": { "type": "Point", "coordinates": [ 16.369702, 48.202683 ] } },
{ "type": "Feature", "properties": { "Station Name": "Volksgarten", "empty_slots": 2.0, "free_bikes": 13, "latitude": 48.206516, "longitude": 16.3604, "timestamp": "2023-03-05T20:59:41.049000Z", "Unique ID": "68578979" }, "geometry": { "type": "Point", "coordinates": [ 16.3604, 48.206516 ] } },
{ "type": "Feature", "properties": { "Station Name": "Taborstraße U2", "empty_slots": 0.0, "free_bikes": 23, "latitude": 48.219522, "longitude": 16.382218, "timestamp": "2023-03-05T20:59:41.054000Z", "Unique ID": "68579972" }, "geometry": { "type": "Point", "coordinates": [ 16.382218, 48.219522 ] } },
{ "type": "Feature", "properties": { "Station Name": "Erdberg U3", "empty_slots": 0.0, "free_bikes": 37, "latitude": 48.190465, "longitude": 16.415318, "timestamp": "2023-03-05T20:59:41.058000Z", "Unique ID": "68580955" }, "geometry": { "type": "Point", "coordinates": [ 16.415318, 48.190465 ] } },
{ "type": "Feature", "properties": { "Station Name": "Media Quarter Marx", "empty_slots": 5.0, "free_bikes": 19, "latitude": 48.188763, "longitude": 16.404503, "timestamp": "2023-03-05T20:59:41.060000Z", "Unique ID": "68581183" }, "geometry": { "type": "Point", "coordinates": [ 16.404503, 48.188763 ] } },
{ "type": "Feature", "properties": { "Station Name": "Heumühlgasse", "empty_slots": 14.0, "free_bikes": 4, "latitude": 48.195304, "longitude": 16.363308, "timestamp": "2023-03-05T20:59:41.067000Z", "Unique ID": "68582758" }, "geometry": { "type": "Point", "coordinates": [ 16.363308, 48.195304 ] } },
{ "type": "Feature", "properties": { "Station Name": "Margaretengürtel U4", "empty_slots": 26.0, "free_bikes": 4, "latitude": 48.188612, "longitude": 16.343977, "timestamp": "2023-03-05T20:59:41.068000Z", "Unique ID": "68583064" }, "geometry": { "type": "Point", "coordinates": [ 16.343977, 48.188612 ] } },
{ "type": "Feature", "properties": { "Station Name": "Mittersteig", "empty_slots": 6.0, "free_bikes": 17, "latitude": 48.189735, "longitude": 16.361331, "timestamp": "2023-03-05T20:59:41.069000Z", "Unique ID": "68583190" }, "geometry": { "type": "Point", "coordinates": [ 16.361331, 48.189735 ] } },
{ "type": "Feature", "properties": { "Station Name": "Berggasse", "empty_slots": 16.0, "free_bikes": 22, "latitude": 48.219182, "longitude": 16.366349, "timestamp": "2023-03-05T20:59:41.077000Z", "Unique ID": "68583873" }, "geometry": { "type": "Point", "coordinates": [ 16.366349, 48.219182 ] } },
{ "type": "Feature", "properties": { "Station Name": "Alfred-Böhm-Park", "empty_slots": 6.0, "free_bikes": 18, "latitude": 48.167276, "longitude": 16.386339, "timestamp": "2023-03-05T20:59:41.085000Z", "Unique ID": "68585081" }, "geometry": { "type": "Point", "coordinates": [ 16.386339, 48.167276 ] } },
{ "type": "Feature", "properties": { "Station Name": "Altes Landgut U1", "empty_slots": 7.0, "free_bikes": 23, "latitude": 48.160985, "longitude": 16.383653, "timestamp": "2023-03-05T20:59:41.086000Z", "Unique ID": "68586340" }, "geometry": { "type": "Point", "coordinates": [ 16.383653, 48.160985 ] } },
{ "type": "Feature", "properties": { "Station Name": "Bloch-Bauer-Promenade", "empty_slots": 5.0, "free_bikes": 1, "latitude": 48.179521, "longitude": 16.385926, "timestamp": "2023-03-05T20:59:41.086000Z", "Unique ID": "68586628" }, "geometry": { "type": "Point", "coordinates": [ 16.385926, 48.179521 ] } },
{ "type": "Feature", "properties": { "Station Name": "Hauptbahnhof S U ", "empty_slots": 0.0, "free_bikes": 56, "latitude": 48.186287, "longitude": 16.375631, "timestamp": "2023-03-05T20:59:41.087000Z", "Unique ID": "68586882" }, "geometry": { "type": "Point", "coordinates": [ 16.375631, 48.186287 ] } },
{ "type": "Feature", "properties": { "Station Name": "Keplerplatz U1", "empty_slots": 3.0, "free_bikes": 13, "latitude": 48.179192, "longitude": 16.375793, "timestamp": "2023-03-05T20:59:41.088000Z", "Unique ID": "68587431" }, "geometry": { "type": "Point", "coordinates": [ 16.375793, 48.179192 ] } },
{ "type": "Feature", "properties": { "Station Name": "Puchsbaumgasse", "empty_slots": 10.0, "free_bikes": 3, "latitude": 48.172123, "longitude": 16.389296, "timestamp": "2023-03-05T20:59:41.089000Z", "Unique ID": "68587603" }, "geometry": { "type": "Point", "coordinates": [ 16.389296, 48.172123 ] } },
{ "type": "Feature", "properties": { "Station Name": "Enkplatz U3", "empty_slots": 0.0, "free_bikes": 17, "latitude": 48.17625, "longitude": 16.41326, "timestamp": "2023-03-05T20:59:41.089000Z", "Unique ID": "68587889" }, "geometry": { "type": "Point", "coordinates": [ 16.41326, 48.17625 ] } },
{ "type": "Feature", "properties": { "Station Name": "Gasometer U3", "empty_slots": 9.0, "free_bikes": 7, "latitude": 48.185253, "longitude": 16.417358, "timestamp": "2023-03-05T20:59:41.090000Z", "Unique ID": "68588081" }, "geometry": { "type": "Point", "coordinates": [ 16.417358, 48.185253 ] } },
{ "type": "Feature", "properties": { "Station Name": "Geiselbergstraße S", "empty_slots": 0.0, "free_bikes": 17, "latitude": 48.174951, "longitude": 16.406785, "timestamp": "2023-03-05T20:59:41.091000Z", "Unique ID": "68588324" }, "geometry": { "type": "Point", "coordinates": [ 16.406785, 48.174951 ] } },
{ "type": "Feature", "properties": { "Station Name": "Simmering S U", "empty_slots": 6.0, "free_bikes": 9, "latitude": 48.169601, "longitude": 16.420754, "timestamp": "2023-03-05T20:59:41.091000Z", "Unique ID": "68588588" }, "geometry": { "type": "Point", "coordinates": [ 16.420754, 48.169601 ] } },
{ "type": "Feature", "properties": { "Station Name": "Westbahnhof S U", "empty_slots": 17.0, "free_bikes": 23, "latitude": 48.19681, "longitude": 16.338577, "timestamp": "2023-03-05T20:59:41.093000Z", "Unique ID": "68589226" }, "geometry": { "type": "Point", "coordinates": [ 16.338577, 48.19681 ] } },
{ "type": "Feature", "properties": { "Station Name": "Gymnasiumstraße", "empty_slots": 19.0, "free_bikes": 6, "latitude": 48.236591, "longitude": 16.348719, "timestamp": "2023-03-05T20:59:41.096000Z", "Unique ID": "68590091" }, "geometry": { "type": "Point", "coordinates": [ 16.348719, 48.236591 ] } },
{ "type": "Feature", "properties": { "Station Name": "Floridsdorf S U", "empty_slots": 2.0, "free_bikes": 26, "latitude": 48.255621, "longitude": 16.400137, "timestamp": "2023-03-05T20:59:41.099000Z", "Unique ID": "68590949" }, "geometry": { "type": "Point", "coordinates": [ 16.400137, 48.255621 ] } },
{ "type": "Feature", "properties": { "Station Name": "Großfeldsiedlung U1", "empty_slots": 4.0, "free_bikes": 10, "latitude": 48.271948, "longitude": 16.447562, "timestamp": "2023-03-05T20:59:41.099000Z", "Unique ID": "68591140" }, "geometry": { "type": "Point", "coordinates": [ 16.447562, 48.271948 ] } },
{ "type": "Feature", "properties": { "Station Name": "Siemensstraße S", "empty_slots": 10.0, "free_bikes": 2, "latitude": 48.27113, "longitude": 16.42081, "timestamp": "2023-03-05T20:59:41.100000Z", "Unique ID": "68591336" }, "geometry": { "type": "Point", "coordinates": [ 16.42081, 48.27113 ] } },
{ "type": "Feature", "properties": { "Station Name": "Aspernstraße U2", "empty_slots": 12.0, "free_bikes": 12, "latitude": 48.223008, "longitude": 16.475255, "timestamp": "2023-03-05T20:59:41.101000Z", "Unique ID": "68592270" }, "geometry": { "type": "Point", "coordinates": [ 16.475255, 48.223008 ] } },
{ "type": "Feature", "properties": { "Station Name": "Donauspital U2", "empty_slots": 1.0, "free_bikes": 20, "latitude": 48.219878, "longitude": 16.464588, "timestamp": "2023-03-05T20:59:41.101000Z", "Unique ID": "68592591" }, "geometry": { "type": "Point", "coordinates": [ 16.464588, 48.219878 ] } },
{ "type": "Feature", "properties": { "Station Name": "Erzherzog-Karl-Straße S", "empty_slots": 3.0, "free_bikes": 17, "latitude": 48.229619, "longitude": 16.45357, "timestamp": "2023-03-05T20:59:41.102000Z", "Unique ID": "68593797" }, "geometry": { "type": "Point", "coordinates": [ 16.45357, 48.229619 ] } },
{ "type": "Feature", "properties": { "Station Name": "Hausfeldstraße S U", "empty_slots": 8.0, "free_bikes": 14, "latitude": 48.233624, "longitude": 16.486825, "timestamp": "2023-03-05T20:59:41.103000Z", "Unique ID": "68594003" }, "geometry": { "type": "Point", "coordinates": [ 16.486825, 48.233624 ] } },
{ "type": "Feature", "properties": { "Station Name": "Maria-Tusch-Straße", "empty_slots": 11.0, "free_bikes": 19, "latitude": 48.224719, "longitude": 16.498557, "timestamp": "2023-03-05T20:59:41.105000Z", "Unique ID": "68594313" }, "geometry": { "type": "Point", "coordinates": [ 16.498557, 48.224719 ] } },
{ "type": "Feature", "properties": { "Station Name": "Pirquetgasse", "empty_slots": 4.0, "free_bikes": 15, "latitude": 48.240415, "longitude": 16.483887, "timestamp": "2023-03-05T20:59:41.105000Z", "Unique ID": "68594478" }, "geometry": { "type": "Point", "coordinates": [ 16.483887, 48.240415 ] } },
{ "type": "Feature", "properties": { "Station Name": "Rennbahnweg U1", "empty_slots": 16.0, "free_bikes": 4, "latitude": 48.257535, "longitude": 16.44959, "timestamp": "2023-03-05T20:59:41.106000Z", "Unique ID": "68594670" }, "geometry": { "type": "Point", "coordinates": [ 16.44959, 48.257535 ] } },
{ "type": "Feature", "properties": { "Station Name": "Stadlau U 2", "empty_slots": 16.0, "free_bikes": 2, "latitude": 48.21978, "longitude": 16.44922, "timestamp": "2023-03-05T20:59:41.108000Z", "Unique ID": "68595050" }, "geometry": { "type": "Point", "coordinates": [ 16.44922, 48.21978 ] } },
{ "type": "Feature", "properties": { "Station Name": "VIC Kaisermühlen U1", "empty_slots": 21.0, "free_bikes": 1, "latitude": 48.232362, "longitude": 16.415692, "timestamp": "2023-03-05T20:59:41.108000Z", "Unique ID": "68595226" }, "geometry": { "type": "Point", "coordinates": [ 16.415692, 48.232362 ] } },
{ "type": "Feature", "properties": { "Station Name": "Kagraner Platz U1", "empty_slots": 3.0, "free_bikes": 11, "latitude": 48.251071, "longitude": 16.443794, "timestamp": "2023-03-05T20:59:41.109000Z", "Unique ID": "68595381" }, "geometry": { "type": "Point", "coordinates": [ 16.443794, 48.251071 ] } },
{ "type": "Feature", "properties": { "Station Name": "Alterlaa U6", "empty_slots": 9.0, "free_bikes": 13, "latitude": 48.150204, "longitude": 16.317214, "timestamp": "2023-03-05T20:59:41.110000Z", "Unique ID": "68595540" }, "geometry": { "type": "Point", "coordinates": [ 16.317214, 48.150204 ] } },
{ "type": "Feature", "properties": { "Station Name": "Carl-Appel-Straße", "empty_slots": null, "free_bikes": 0, "latitude": 48.168912, "longitude": 16.343897, "timestamp": "2023-03-05T20:59:41.113000Z", "Unique ID": "71502675" }, "geometry": { "type": "Point", "coordinates": [ 16.343897, 48.168912 ] } },
{ "type": "Feature", "properties": { "Station Name": "Otto-Probst-Platz", "empty_slots": null, "free_bikes": 8, "latitude": 48.15468, "longitude": 16.348017, "timestamp": "2023-03-05T20:59:41.113000Z", "Unique ID": "71502970" }, "geometry": { "type": "Point", "coordinates": [ 16.348017, 48.15468 ] } },
{ "type": "Feature", "properties": { "Station Name": "Laaer Berg / Kurpark Nordeingang", "empty_slots": null, "free_bikes": 3, "latitude": 48.151915, "longitude": 16.401945, "timestamp": "2023-03-05T20:59:41.114000Z", "Unique ID": "71503311" }, "geometry": { "type": "Point", "coordinates": [ 16.401945, 48.151915 ] } },
{ "type": "Feature", "properties": { "Station Name": "Sibeliusstraße", "empty_slots": null, "free_bikes": 8, "latitude": 48.15922, "longitude": 16.36722, "timestamp": "2023-03-05T20:59:41.115000Z", "Unique ID": "71503674" }, "geometry": { "type": "Point", "coordinates": [ 16.36722, 48.15922 ] } },
{ "type": "Feature", "properties": { "Station Name": "Alaudagasse U1", "empty_slots": null, "free_bikes": 7, "latitude": 48.15271, "longitude": 16.38247, "timestamp": "2023-03-05T20:59:41.115000Z", "Unique ID": "71504091" }, "geometry": { "type": "Point", "coordinates": [ 16.38247, 48.15271 ] } },
{ "type": "Feature", "properties": { "Station Name": "Svetelskystraße", "empty_slots": null, "free_bikes": 9, "latitude": 48.15403, "longitude": 16.46573, "timestamp": "2023-03-05T20:59:41.116000Z", "Unique ID": "71504398" }, "geometry": { "type": "Point", "coordinates": [ 16.46573, 48.15403 ] } },
{ "type": "Feature", "properties": { "Station Name": "Rohrhofergasse", "empty_slots": null, "free_bikes": 4, "latitude": 48.17125, "longitude": 16.42993, "timestamp": "2023-03-05T20:59:41.117000Z", "Unique ID": "71504898" }, "geometry": { "type": "Point", "coordinates": [ 16.42993, 48.17125 ] } },
{ "type": "Feature", "properties": { "Station Name": "Zentralfriedhof 2. Tor", "empty_slots": null, "free_bikes": 4, "latitude": 48.154586, "longitude": 16.442444, "timestamp": "2023-03-05T20:59:41.118000Z", "Unique ID": "71506305" }, "geometry": { "type": "Point", "coordinates": [ 16.442444, 48.154586 ] } },
{ "type": "Feature", "properties": { "Station Name": "Simoningplatz", "empty_slots": null, "free_bikes": 1, "latitude": 48.179565, "longitude": 16.420426, "timestamp": "2023-03-05T20:59:41.119000Z", "Unique ID": "71506495" }, "geometry": { "type": "Point", "coordinates": [ 16.420426, 48.179565 ] } },
{ "type": "Feature", "properties": { "Station Name": "Hauptwerkstätte", "empty_slots": null, "free_bikes": 2, "latitude": 48.14826, "longitude": 16.462393, "timestamp": "2023-03-05T20:59:41.119000Z", "Unique ID": "71506714" }, "geometry": { "type": "Point", "coordinates": [ 16.462393, 48.14826 ] } },
{ "type": "Feature", "properties": { "Station Name": "Zippererstraße U3", "empty_slots": null, "free_bikes": 1, "latitude": 48.179323, "longitude": 16.411067, "timestamp": "2023-03-05T20:59:41.120000Z", "Unique ID": "71507082" }, "geometry": { "type": "Point", "coordinates": [ 16.411067, 48.179323 ] } },
{ "type": "Feature", "properties": { "Station Name": "Stammersdorf", "empty_slots": null, "free_bikes": 3, "latitude": 48.297358, "longitude": 16.420875, "timestamp": "2023-03-05T20:59:41.128000Z", "Unique ID": "71512862" }, "geometry": { "type": "Point", "coordinates": [ 16.420875, 48.297358 ] } },
{ "type": "Feature", "properties": { "Station Name": "Kollarzgasse", "empty_slots": null, "free_bikes": 6, "latitude": 48.285276, "longitude": 16.424399, "timestamp": "2023-03-05T20:59:41.129000Z", "Unique ID": "71513019" }, "geometry": { "type": "Point", "coordinates": [ 16.424399, 48.285276 ] } },
{ "type": "Feature", "properties": { "Station Name": "Kantergasse", "empty_slots": null, "free_bikes": 1, "latitude": 48.278108, "longitude": 16.410042, "timestamp": "2023-03-05T20:59:41.129000Z", "Unique ID": "71513155" }, "geometry": { "type": "Point", "coordinates": [ 16.410042, 48.278108 ] } },
{ "type": "Feature", "properties": { "Station Name": "Leopoldau S U", "empty_slots": null, "free_bikes": 5, "latitude": 48.278087, "longitude": 16.451058, "timestamp": "2023-03-05T20:59:41.130000Z", "Unique ID": "71513386" }, "geometry": { "type": "Point", "coordinates": [ 16.451058, 48.278087 ] } },
{ "type": "Feature", "properties": { "Station Name": "Josef-Baumann-Gasse", "empty_slots": null, "free_bikes": 6, "latitude": 48.251651, "longitude": 16.430362, "timestamp": "2023-03-05T20:59:41.131000Z", "Unique ID": "71513576" }, "geometry": { "type": "Point", "coordinates": [ 16.430362, 48.251651 ] } },
{ "type": "Feature", "properties": { "Station Name": "Fultonstraße", "empty_slots": null, "free_bikes": 3, "latitude": 48.253115, "longitude": 16.414226, "timestamp": "2023-03-05T20:59:41.131000Z", "Unique ID": "71513732" }, "geometry": { "type": "Point", "coordinates": [ 16.414226, 48.253115 ] } },
{ "type": "Feature", "properties": { "Station Name": "Hopfengasse", "empty_slots": null, "free_bikes": 2, "latitude": 48.27059, "longitude": 16.392704, "timestamp": "2023-03-05T20:59:41.132000Z", "Unique ID": "71513842" }, "geometry": { "type": "Point", "coordinates": [ 16.392704, 48.27059 ] } },
{ "type": "Feature", "properties": { "Station Name": "Jedleseer Friedhof", "empty_slots": null, "free_bikes": 8, "latitude": 48.262127, "longitude": 16.387658, "timestamp": "2023-03-05T20:59:41.132000Z", "Unique ID": "71513967" }, "geometry": { "type": "Point", "coordinates": [ 16.387658, 48.262127 ] } },
{ "type": "Feature", "properties": { "Station Name": "Audorfgasse", "empty_slots": null, "free_bikes": 5, "latitude": 48.271593, "longitude": 16.383093, "timestamp": "2023-03-05T20:59:41.133000Z", "Unique ID": "71514129" }, "geometry": { "type": "Point", "coordinates": [ 16.383093, 48.271593 ] } },
{ "type": "Feature", "properties": { "Station Name": "Strebersdorf S", "empty_slots": null, "free_bikes": 7, "latitude": 48.291646, "longitude": 16.386725, "timestamp": "2023-03-05T20:59:41.134000Z", "Unique ID": "71514234" }, "geometry": { "type": "Point", "coordinates": [ 16.386725, 48.291646 ] } },
{ "type": "Feature", "properties": { "Station Name": "Bernoullistraße", "empty_slots": null, "free_bikes": 5, "latitude": 48.239676, "longitude": 16.446051, "timestamp": "2023-03-05T20:59:41.134000Z", "Unique ID": "71514394" }, "geometry": { "type": "Point", "coordinates": [ 16.446051, 48.239676 ] } },
{ "type": "Feature", "properties": { "Station Name": "Zachgasse", "empty_slots": null, "free_bikes": 5, "latitude": 48.217262, "longitude": 16.488298, "timestamp": "2023-03-05T20:59:41.135000Z", "Unique ID": "71514513" }, "geometry": { "type": "Point", "coordinates": [ 16.488298, 48.217262 ] } },
{ "type": "Feature", "properties": { "Station Name": "Stavangergasse", "empty_slots": null, "free_bikes": 6, "latitude": 48.213389, "longitude": 16.47486, "timestamp": "2023-03-05T20:59:41.136000Z", "Unique ID": "71514663" }, "geometry": { "type": "Point", "coordinates": [ 16.47486, 48.213389 ] } },
{ "type": "Feature", "properties": { "Station Name": "Hans-Steger-Gasse", "empty_slots": null, "free_bikes": 3, "latitude": 48.224906, "longitude": 16.456443, "timestamp": "2023-03-05T20:59:41.136000Z", "Unique ID": "71514791" }, "geometry": { "type": "Point", "coordinates": [ 16.456443, 48.224906 ] } },
{ "type": "Feature", "properties": { "Station Name": "Hirschstetten S", "empty_slots": null, "free_bikes": 6, "latitude": 48.23264, "longitude": 16.470204, "timestamp": "2023-03-05T20:59:41.137000Z", "Unique ID": "71514929" }, "geometry": { "type": "Point", "coordinates": [ 16.470204, 48.23264 ] } },
{ "type": "Feature", "properties": { "Station Name": "Jakob-Bindel-Platz", "empty_slots": null, "free_bikes": 4, "latitude": 48.246187, "longitude": 16.472797, "timestamp": "2023-03-05T20:59:41.137000Z", "Unique ID": "71515044" }, "geometry": { "type": "Point", "coordinates": [ 16.472797, 48.246187 ] } },
{ "type": "Feature", "properties": { "Station Name": "Gattergasse", "empty_slots": null, "free_bikes": 4, "latitude": 48.16205, "longitude": 16.421941, "timestamp": "2023-03-05T20:59:41.117000Z", "Unique ID": "71506156" }, "geometry": { "type": "Point", "coordinates": [ 16.421941, 48.16205 ] } },
{ "type": "Feature", "properties": { "Station Name": "Weißenböckstraße", "empty_slots": null, "free_bikes": 7, "latitude": 48.162067, "longitude": 16.42849, "timestamp": "2023-03-05T20:59:41.116000Z", "Unique ID": "71504628" }, "geometry": { "type": "Point", "coordinates": [ 16.42849, 48.162067 ] } },
{ "type": "Feature", "properties": { "Station Name": "Handelskai S U", "empty_slots": 4.0, "free_bikes": 30, "latitude": 48.24201, "longitude": 16.384797, "timestamp": "2023-03-05T20:59:41.097000Z", "Unique ID": "68590324" }, "geometry": { "type": "Point", "coordinates": [ 16.384797, 48.24201 ] } },
{ "type": "Feature", "properties": { "Station Name": "Schwarzenbergplatz", "empty_slots": 2.0, "free_bikes": 18, "latitude": 48.198852, "longitude": 16.376962, "timestamp": "2023-03-05T20:59:41.063000Z", "Unique ID": "68582598" }, "geometry": { "type": "Point", "coordinates": [ 16.376962, 48.198852 ] } },
{ "type": "Feature", "properties": { "Station Name": "Richard-Wagner-Platz", "empty_slots": 10.0, "free_bikes": 14, "latitude": 48.210054, "longitude": 16.328049, "timestamp": "2023-03-05T20:59:41.094000Z", "Unique ID": "68589424" }, "geometry": { "type": "Point", "coordinates": [ 16.328049, 48.210054 ] } },
{ "type": "Feature", "properties": { "Station Name": "Brünner Straße S", "empty_slots": 3.0, "free_bikes": 14, "latitude": 48.267376, "longitude": 16.403725, "timestamp": "2023-03-05T20:59:41.098000Z", "Unique ID": "68590734" }, "geometry": { "type": "Point", "coordinates": [ 16.403725, 48.267376 ] } },
{ "type": "Feature", "properties": { "Station Name": "Wallensteinplatz", "empty_slots": 0.0, "free_bikes": 24, "latitude": 48.229911, "longitude": 16.371579, "timestamp": "2023-03-05T20:59:41.097000Z", "Unique ID": "68590453" }, "geometry": { "type": "Point", "coordinates": [ 16.371579, 48.229911 ] } },
{ "type": "Feature", "properties": { "Station Name": "Rennweg S", "empty_slots": 0.0, "free_bikes": 16, "latitude": 48.194261, "longitude": 16.386578, "timestamp": "2023-03-05T20:59:41.061000Z", "Unique ID": "68582032" }, "geometry": { "type": "Point", "coordinates": [ 16.386578, 48.194261 ] } },
{ "type": "Feature", "properties": { "Station Name": "Niederhofstraße U6", "empty_slots": 5.0, "free_bikes": 9, "latitude": 48.180233, "longitude": 16.330812, "timestamp": "2023-03-05T20:59:41.092000Z", "Unique ID": "68588759" }, "geometry": { "type": "Point", "coordinates": [ 16.330812, 48.180233 ] } },
{ "type": "Feature", "properties": { "Station Name": "Alser Straße U6", "empty_slots": 0.0, "free_bikes": 22, "latitude": 48.216588, "longitude": 16.3416, "timestamp": "2023-03-05T20:59:41.095000Z", "Unique ID": "68589618" }, "geometry": { "type": "Point", "coordinates": [ 16.3416, 48.216588 ] } },
{ "type": "Feature", "properties": { "Station Name": "WU-Campus / Südportalstraße ", "empty_slots": 0.0, "free_bikes": 37, "latitude": 48.212856, "longitude": 16.407665, "timestamp": "2023-03-05T20:59:41.054000Z", "Unique ID": "68580182" }, "geometry": { "type": "Point", "coordinates": [ 16.407665, 48.212856 ] } },
{ "type": "Feature", "properties": { "Station Name": "Bahngasse", "empty_slots": 6.0, "free_bikes": 21, "latitude": 48.201628, "longitude": 16.384459, "timestamp": "2023-03-05T20:59:41.057000Z", "Unique ID": "68580716" }, "geometry": { "type": "Point", "coordinates": [ 16.384459, 48.201628 ] } },
{ "type": "Feature", "properties": { "Station Name": "Radetzkyplatz", "empty_slots": 20.0, "free_bikes": 6, "latitude": 48.210682, "longitude": 16.390221, "timestamp": "2023-03-05T20:59:41.055000Z", "Unique ID": "68580553" }, "geometry": { "type": "Point", "coordinates": [ 16.390221, 48.210682 ] } },
{ "type": "Feature", "properties": { "Station Name": "Rochusmarkt", "empty_slots": 12.0, "free_bikes": 4, "latitude": 48.203416, "longitude": 16.389789, "timestamp": "2023-03-05T20:59:41.062000Z", "Unique ID": "68582393" }, "geometry": { "type": "Point", "coordinates": [ 16.389789, 48.203416 ] } },
{ "type": "Feature", "properties": { "Station Name": "Spittelau S U", "empty_slots": 15.0, "free_bikes": 4, "latitude": 48.235289, "longitude": 16.35875, "timestamp": "2023-03-05T20:59:41.084000Z", "Unique ID": "68584898" }, "geometry": { "type": "Point", "coordinates": [ 16.35875, 48.235289 ] } },
{ "type": "Feature", "properties": { "Station Name": "Währinger Straße U6", "empty_slots": 10.0, "free_bikes": 14, "latitude": 48.225482, "longitude": 16.349795, "timestamp": "2023-03-05T20:59:41.095000Z", "Unique ID": "68589785" }, "geometry": { "type": "Point", "coordinates": [ 16.349795, 48.225482 ] } },
{ "type": "Feature", "properties": { "Station Name": "Bacherplatz", "empty_slots": null, "free_bikes": 9, "latitude": 48.188009, "longitude": 16.355089, "timestamp": "2023-03-05T20:59:41.111000Z", "Unique ID": "71501335" }, "geometry": { "type": "Point", "coordinates": [ 16.355089, 48.188009 ] } },
{ "type": "Feature", "properties": { "Station Name": "Margaretenplatz", "empty_slots": null, "free_bikes": 7, "latitude": 48.191881, "longitude": 16.358912, "timestamp": "2023-03-05T20:59:41.112000Z", "Unique ID": "71501798" }, "geometry": { "type": "Point", "coordinates": [ 16.358912, 48.191881 ] } },
{ "type": "Feature", "properties": { "Station Name": "Hetzendorf S", "empty_slots": null, "free_bikes": 3, "latitude": 48.16726, "longitude": 16.316299, "timestamp": "2023-03-05T20:59:41.120000Z", "Unique ID": "71507263" }, "geometry": { "type": "Point", "coordinates": [ 16.316299, 48.16726 ] } },
{ "type": "Feature", "properties": { "Station Name": "Auer-Welsbach-Straße", "empty_slots": null, "free_bikes": 4, "latitude": 48.154273, "longitude": 16.30589, "timestamp": "2023-03-05T20:59:41.121000Z", "Unique ID": "71507438" }, "geometry": { "type": "Point", "coordinates": [ 16.30589, 48.154273 ] } },
{ "type": "Feature", "properties": { "Station Name": "Pottendorfer Straße", "empty_slots": null, "free_bikes": 1, "latitude": 48.17048, "longitude": 16.330518, "timestamp": "2023-03-05T20:59:41.121000Z", "Unique ID": "71508657" }, "geometry": { "type": "Point", "coordinates": [ 16.330518, 48.17048 ] } },
{ "type": "Feature", "properties": { "Station Name": "Gatterhölzl", "empty_slots": null, "free_bikes": 5, "latitude": 48.175541, "longitude": 16.320079, "timestamp": "2023-03-05T20:59:41.122000Z", "Unique ID": "71508860" }, "geometry": { "type": "Point", "coordinates": [ 16.320079, 48.175541 ] } },
{ "type": "Feature", "properties": { "Station Name": "Hasnerstraße / Hofferplatz", "empty_slots": null, "free_bikes": 5, "latitude": 48.208069, "longitude": 16.332685, "timestamp": "2023-03-05T20:59:41.125000Z", "Unique ID": "71511715" }, "geometry": { "type": "Point", "coordinates": [ 16.332685, 48.208069 ] } },
{ "type": "Feature", "properties": { "Station Name": "Nietzscheplatz", "empty_slots": null, "free_bikes": 1, "latitude": 48.220455, "longitude": 16.306062, "timestamp": "2023-03-05T20:59:41.125000Z", "Unique ID": "71511892" }, "geometry": { "type": "Point", "coordinates": [ 16.306062, 48.220455 ] } },
{ "type": "Feature", "properties": { "Station Name": "Wattgasse", "empty_slots": null, "free_bikes": 2, "latitude": 48.21752, "longitude": 16.319982, "timestamp": "2023-03-05T20:59:41.126000Z", "Unique ID": "71512025" }, "geometry": { "type": "Point", "coordinates": [ 16.319982, 48.21752 ] } },
{ "type": "Feature", "properties": { "Station Name": "Grinzing", "empty_slots": null, "free_bikes": 5, "latitude": 48.255793, "longitude": 16.342947, "timestamp": "2023-03-05T20:59:41.127000Z", "Unique ID": "71512384" }, "geometry": { "type": "Point", "coordinates": [ 16.342947, 48.255793 ] } },
{ "type": "Feature", "properties": { "Station Name": "Glanzing", "empty_slots": null, "free_bikes": 2, "latitude": 48.24376, "longitude": 16.320682, "timestamp": "2023-03-05T20:59:41.127000Z", "Unique ID": "71512535" }, "geometry": { "type": "Point", "coordinates": [ 16.320682, 48.24376 ] } },
{ "type": "Feature", "properties": { "Station Name": "Eduard-Kittenberger-Gasse", "empty_slots": null, "free_bikes": 4, "latitude": 48.136941, "longitude": 16.302588, "timestamp": "2023-03-05T20:59:41.138000Z", "Unique ID": "71515203" }, "geometry": { "type": "Point", "coordinates": [ 16.302588, 48.136941 ] } },
{ "type": "Feature", "properties": { "Station Name": "Siebenhirten U", "empty_slots": null, "free_bikes": 4, "latitude": 48.129845, "longitude": 16.310018, "timestamp": "2023-03-05T20:59:41.139000Z", "Unique ID": "71515681" }, "geometry": { "type": "Point", "coordinates": [ 16.310018, 48.129845 ] } },
{ "type": "Feature", "properties": { "Station Name": "Erlaaerstraße U6", "empty_slots": null, "free_bikes": 5, "latitude": 48.141515, "longitude": 16.316855, "timestamp": "2023-03-05T20:59:41.140000Z", "Unique ID": "84043210" }, "geometry": { "type": "Point", "coordinates": [ 16.316855, 48.141515 ] } },
{ "type": "Feature", "properties": { "Station Name": "Perfektastraße U6", "empty_slots": null, "free_bikes": 0, "latitude": 48.136639, "longitude": 16.312928, "timestamp": "2023-03-05T20:59:41.140000Z", "Unique ID": "84043446" }, "geometry": { "type": "Point", "coordinates": [ 16.312928, 48.136639 ] } },
{ "type": "Feature", "properties": { "Station Name": "Atzgersdorf S", "empty_slots": null, "free_bikes": 3, "latitude": 48.146654, "longitude": 16.287907, "timestamp": "2023-03-05T20:59:41.139000Z", "Unique ID": "71515384" }, "geometry": { "type": "Point", "coordinates": [ 16.287907, 48.146654 ] } },
{ "type": "Feature", "properties": { "Station Name": "Muthgasse", "empty_slots": null, "free_bikes": 8, "latitude": 48.251987, "longitude": 16.369849, "timestamp": "2023-03-05T20:59:41.142000Z", "Unique ID": "86734914" }, "geometry": { "type": "Point", "coordinates": [ 16.369849, 48.251987 ] } },
{ "type": "Feature", "properties": { "Station Name": "Hütteldorf / Hackinger Steg", "empty_slots": null, "free_bikes": 1, "latitude": 48.196133, "longitude": 16.260386, "timestamp": "2023-03-05T20:59:41.141000Z", "Unique ID": "84043886" }, "geometry": { "type": "Point", "coordinates": [ 16.260386, 48.196133 ] } },
{ "type": "Feature", "properties": { "Station Name": "Aspern Nord S U", "empty_slots": null, "free_bikes": 8, "latitude": 48.234002, "longitude": 16.504943, "timestamp": "2023-03-05T20:59:41.149000Z", "Unique ID": "94505684" }, "geometry": { "type": "Point", "coordinates": [ 16.504943, 48.234002 ] } },
{ "type": "Feature", "properties": { "Station Name": "Seepark", "empty_slots": null, "free_bikes": 1, "latitude": 48.226515, "longitude": 16.504506, "timestamp": "2023-03-05T20:59:41.150000Z", "Unique ID": "94506147" }, "geometry": { "type": "Point", "coordinates": [ 16.504506, 48.226515 ] } },
{ "type": "Feature", "properties": { "Station Name": "Seestadt U", "empty_slots": null, "free_bikes": 6, "latitude": 48.224794, "longitude": 16.50795, "timestamp": "2023-03-05T20:59:41.151000Z", "Unique ID": "94506325" }, "geometry": { "type": "Point", "coordinates": [ 16.50795, 48.224794 ] } },
{ "type": "Feature", "properties": { "Station Name": "Schüttauplatz", "empty_slots": 0.0, "free_bikes": 21, "latitude": 48.225856, "longitude": 16.423761, "timestamp": "2023-03-05T20:59:41.107000Z", "Unique ID": "68594877" }, "geometry": { "type": "Point", "coordinates": [ 16.423761, 48.225856 ] } },
{ "type": "Feature", "properties": { "Station Name": "Schwedenplatz", "empty_slots": 20.0, "free_bikes": 10, "latitude": 48.211721, "longitude": 16.376628, "timestamp": "2023-03-05T20:59:41.152000Z", "Unique ID": "102158706" }, "geometry": { "type": "Point", "coordinates": [ 16.376628, 48.211721 ] } },
{ "type": "Feature", "properties": { "Station Name": "Waldmüllerpark", "empty_slots": 5.0, "free_bikes": 7, "latitude": 48.18136, "longitude": 16.367618, "timestamp": "2023-03-05T20:59:41.160000Z", "Unique ID": "102178715" }, "geometry": { "type": "Point", "coordinates": [ 16.367618, 48.18136 ] } },
{ "type": "Feature", "properties": { "Station Name": "Schloss Schönbrunn", "empty_slots": 12.0, "free_bikes": 24, "latitude": 48.187201, "longitude": 16.312659, "timestamp": "2023-03-05T20:59:41.172000Z", "Unique ID": "103319515" }, "geometry": { "type": "Point", "coordinates": [ 16.312659, 48.187201 ] } },
{ "type": "Feature", "properties": { "Station Name": "Hietzing U4", "empty_slots": 0.0, "free_bikes": 32, "latitude": 48.187739, "longitude": 16.302814, "timestamp": "2023-03-05T20:59:41.093000Z", "Unique ID": "68589011" }, "geometry": { "type": "Point", "coordinates": [ 16.302814, 48.187739 ] } },
{ "type": "Feature", "properties": { "Station Name": "Praterstern S U", "empty_slots": 14.0, "free_bikes": 41, "latitude": 48.218454, "longitude": 16.390281, "timestamp": "2023-03-05T20:59:41.163000Z", "Unique ID": "103317151" }, "geometry": { "type": "Point", "coordinates": [ 16.390281, 48.218454 ] } },
{ "type": "Feature", "properties": { "Station Name": "Edelsinnstraße", "empty_slots": 0.0, "free_bikes": 17, "latitude": 48.170578, "longitude": 16.310926, "timestamp": "2023-03-05T20:59:41.189000Z", "Unique ID": "103587074" }, "geometry": { "type": "Point", "coordinates": [ 16.310926, 48.170578 ] } },
{ "type": "Feature", "properties": { "Station Name": "Landstraße - Wien Mitte S U", "empty_slots": 4.0, "free_bikes": 21, "latitude": 48.205847, "longitude": 16.385246, "timestamp": "2023-03-05T20:59:41.162000Z", "Unique ID": "103316881" }, "geometry": { "type": "Point", "coordinates": [ 16.385246, 48.205847 ] } },
{ "type": "Feature", "properties": { "Station Name": "Rustengasse", "empty_slots": 7.0, "free_bikes": 8, "latitude": 48.190832, "longitude": 16.326461, "timestamp": "2023-03-05T20:59:41.164000Z", "Unique ID": "103317402" }, "geometry": { "type": "Point", "coordinates": [ 16.326461, 48.190832 ] } },
{ "type": "Feature", "properties": { "Station Name": "Stephansplatz U", "empty_slots": 1.0, "free_bikes": 21, "latitude": 48.207836, "longitude": 16.372111, "timestamp": "2023-03-05T20:59:41.053000Z", "Unique ID": "68579304" }, "geometry": { "type": "Point", "coordinates": [ 16.372111, 48.207836 ] } },
{ "type": "Feature", "properties": { "Station Name": "Stubentor U", "empty_slots": 7.0, "free_bikes": 9, "latitude": 48.206812, "longitude": 16.380441, "timestamp": "2023-03-05T20:59:41.161000Z", "Unique ID": "103301435" }, "geometry": { "type": "Point", "coordinates": [ 16.380441, 48.206812 ] } },
{ "type": "Feature", "properties": { "Station Name": "Breitensee S", "empty_slots": 1.0, "free_bikes": 12, "latitude": 48.198242, "longitude": 16.306901, "timestamp": "2023-03-05T20:59:41.165000Z", "Unique ID": "103317902" }, "geometry": { "type": "Point", "coordinates": [ 16.306901, 48.198242 ] } },
{ "type": "Feature", "properties": { "Station Name": "Hans-Mandl-Berufsschule", "empty_slots": 6.0, "free_bikes": 9, "latitude": 48.181161, "longitude": 16.338769, "timestamp": "2023-03-05T20:59:41.169000Z", "Unique ID": "103318689" }, "geometry": { "type": "Point", "coordinates": [ 16.338769, 48.181161 ] } },
{ "type": "Feature", "properties": { "Station Name": "Karlsplatz U", "empty_slots": 5.0, "free_bikes": 14, "latitude": 48.199877, "longitude": 16.368227, "timestamp": "2023-03-05T20:59:41.190000Z", "Unique ID": "105011519" }, "geometry": { "type": "Point", "coordinates": [ 16.368227, 48.199877 ] } },
{ "type": "Feature", "properties": { "Station Name": "Rathaus U2", "empty_slots": 16.0, "free_bikes": 25, "latitude": 48.211441, "longitude": 16.356586, "timestamp": "2023-03-05T20:59:41.167000Z", "Unique ID": "103318491" }, "geometry": { "type": "Point", "coordinates": [ 16.356586, 48.211441 ] } },
{ "type": "Feature", "properties": { "Station Name": "Zieglergasse U3", "empty_slots": 0.0, "free_bikes": 14, "latitude": 48.196724, "longitude": 16.343985, "timestamp": "2023-03-05T20:59:41.074000Z", "Unique ID": "68583665" }, "geometry": { "type": "Point", "coordinates": [ 16.343985, 48.196724 ] } },
{ "type": "Feature", "properties": { "Station Name": "Plößlgasse", "empty_slots": 0.0, "free_bikes": 23, "latitude": 48.194578, "longitude": 16.377147, "timestamp": "2023-03-05T20:59:41.183000Z", "Unique ID": "103320049" }, "geometry": { "type": "Point", "coordinates": [ 16.377147, 48.194578 ] } },
{ "type": "Feature", "properties": { "Station Name": "Heiligenstadt S U", "empty_slots": 11.0, "free_bikes": 7, "latitude": 48.248272, "longitude": 16.36813, "timestamp": "2023-03-05T20:59:41.165000Z", "Unique ID": "103317675" }, "geometry": { "type": "Point", "coordinates": [ 16.36813, 48.248272 ] } },
{ "type": "Feature", "properties": { "Station Name": "Amerlingstraße", "empty_slots": null, "free_bikes": 0, "latitude": 48.19713, "longitude": 16.35114, "timestamp": "2023-03-05T20:59:41.191000Z", "Unique ID": "105539739" }, "geometry": { "type": "Point", "coordinates": [ 16.35114, 48.19713 ] } },
{ "type": "Feature", "properties": { "Station Name": "Rossauer Lände U", "empty_slots": 6.0, "free_bikes": 22, "latitude": 48.222729, "longitude": 16.367425, "timestamp": "2023-03-05T20:59:41.186000Z", "Unique ID": "103320795" }, "geometry": { "type": "Point", "coordinates": [ 16.367425, 48.222729 ] } },
{ "type": "Feature", "properties": { "Station Name": "Lazarettgasse", "empty_slots": 9.0, "free_bikes": 9, "latitude": 48.219312, "longitude": 16.352461, "timestamp": "2023-03-05T20:59:41.188000Z", "Unique ID": "103321191" }, "geometry": { "type": "Point", "coordinates": [ 16.352461, 48.219312 ] } },
{ "type": "Feature", "properties": { "Station Name": "Volkstheater U", "empty_slots": 4.0, "free_bikes": 14, "latitude": 48.205994, "longitude": 16.356442, "timestamp": "2023-03-05T20:59:41.074000Z", "Unique ID": "68583487" }, "geometry": { "type": "Point", "coordinates": [ 16.356442, 48.205994 ] } },
{ "type": "Feature", "properties": { "Station Name": "Eslarngasse", "empty_slots": 3.0, "free_bikes": 19, "latitude": 48.196678, "longitude": 16.395204, "timestamp": "2023-03-05T20:59:41.176000Z", "Unique ID": "103319780" }, "geometry": { "type": "Point", "coordinates": [ 16.395204, 48.196678 ] } },
{ "type": "Feature", "properties": { "Station Name": "Universitätsring", "empty_slots": 24.0, "free_bikes": 9, "latitude": 48.21192, "longitude": 16.360781, "timestamp": "2023-03-05T20:59:41.192000Z", "Unique ID": "107176004" }, "geometry": { "type": "Point", "coordinates": [ 16.360781, 48.21192 ] } },
{ "type": "Feature", "properties": { "Station Name": "Sankt-Elisabeth-Platz", "empty_slots": 0.0, "free_bikes": 22, "latitude": 48.19085, "longitude": 16.375668, "timestamp": "2023-03-05T20:59:41.184000Z", "Unique ID": "103320289" }, "geometry": { "type": "Point", "coordinates": [ 16.375668, 48.19085 ] } },
{ "type": "Feature", "properties": { "Station Name": "Herrengasse U", "empty_slots": 3.0, "free_bikes": 21, "latitude": 48.209724, "longitude": 16.366685, "timestamp": "2023-03-05T20:59:41.193000Z", "Unique ID": "107176172" }, "geometry": { "type": "Point", "coordinates": [ 16.366685, 48.209724 ] } },
{ "type": "Feature", "properties": { "Station Name": "Alszeile", "empty_slots": null, "free_bikes": 4, "latitude": 48.226692, "longitude": 16.311999, "timestamp": "2023-03-05T20:59:41.195000Z", "Unique ID": "107426003" }, "geometry": { "type": "Point", "coordinates": [ 16.311999, 48.226692 ] } },
{ "type": "Feature", "properties": { "Station Name": "Speising S", "empty_slots": null, "free_bikes": 1, "latitude": 48.173824, "longitude": 16.282366, "timestamp": "2023-03-05T20:59:41.123000Z", "Unique ID": "71510056" }, "geometry": { "type": "Point", "coordinates": [ 16.282366, 48.173824 ] } },
{ "type": "Feature", "properties": { "Station Name": "Wolfrathplatz", "empty_slots": null, "free_bikes": 4, "latitude": 48.187874, "longitude": 16.269668, "timestamp": "2023-03-05T20:59:41.123000Z", "Unique ID": "71509846" }, "geometry": { "type": "Point", "coordinates": [ 16.269668, 48.187874 ] } },
{ "type": "Feature", "properties": { "Station Name": "Wolf in der Au S", "empty_slots": null, "free_bikes": 4, "latitude": 48.204798, "longitude": 16.236693, "timestamp": "2023-03-05T20:59:41.124000Z", "Unique ID": "71510354" }, "geometry": { "type": "Point", "coordinates": [ 16.236693, 48.204798 ] } },
{ "type": "Feature", "properties": { "Station Name": "Belgradplatz", "empty_slots": null, "free_bikes": 4, "latitude": 48.173666, "longitude": 16.361403, "timestamp": "2023-03-05T20:59:41.196000Z", "Unique ID": "108294385" }, "geometry": { "type": "Point", "coordinates": [ 16.361403, 48.173666 ] } },
{ "type": "Feature", "properties": { "Station Name": "Rathausplatz / Burgtheater", "empty_slots": 2.0, "free_bikes": 16, "latitude": 48.209923, "longitude": 16.360245, "timestamp": "2023-03-05T20:59:41.196000Z", "Unique ID": "108328961" }, "geometry": { "type": "Point", "coordinates": [ 16.360245, 48.209923 ] } },
{ "type": "Feature", "properties": { "Station Name": "Arbeitergasse", "empty_slots": 2.0, "free_bikes": 18, "latitude": 48.18392, "longitude": 16.345801, "timestamp": "2023-03-05T20:59:41.197000Z", "Unique ID": "108329236" }, "geometry": { "type": "Point", "coordinates": [ 16.345801, 48.18392 ] } },
{ "type": "Feature", "properties": { "Station Name": "Bischof-Faber-Platz", "empty_slots": null, "free_bikes": 3, "latitude": 48.233868, "longitude": 16.325099, "timestamp": "2023-03-05T20:59:41.199000Z", "Unique ID": "108575312" }, "geometry": { "type": "Point", "coordinates": [ 16.325099, 48.233868 ] } },
{ "type": "Feature", "properties": { "Station Name": "Bauernfeldplatz", "empty_slots": 6.0, "free_bikes": 18, "latitude": 48.221085, "longitude": 16.360193, "timestamp": "2023-03-05T20:59:41.198000Z", "Unique ID": "108330011" }, "geometry": { "type": "Point", "coordinates": [ 16.360193, 48.221085 ] } },
{ "type": "Feature", "properties": { "Station Name": "Johannesgasse", "empty_slots": 16.0, "free_bikes": 1, "latitude": 48.203384, "longitude": 16.376708, "timestamp": "2023-03-05T20:59:41.199000Z", "Unique ID": "108330262" }, "geometry": { "type": "Point", "coordinates": [ 16.376708, 48.203384 ] } },
{ "type": "Feature", "properties": { "Station Name": "Alserbachstraße", "empty_slots": 0.0, "free_bikes": 22, "latitude": 48.225138, "longitude": 16.354893, "timestamp": "2023-03-05T20:59:41.201000Z", "Unique ID": "110076109" }, "geometry": { "type": "Point", "coordinates": [ 16.354893, 48.225138 ] } },
{ "type": "Feature", "properties": { "Station Name": "Kardinal-Nagl-Platz U", "empty_slots": 13.0, "free_bikes": 3, "latitude": 48.197069, "longitude": 16.400874, "timestamp": "2023-03-05T20:59:41.204000Z", "Unique ID": "110077394" }, "geometry": { "type": "Point", "coordinates": [ 16.400874, 48.197069 ] } },
{ "type": "Feature", "properties": { "Station Name": "Schottenring U", "empty_slots": 1.0, "free_bikes": 17, "latitude": 48.215972, "longitude": 16.372194, "timestamp": "2023-03-05T20:59:41.205000Z", "Unique ID": "110474164" }, "geometry": { "type": "Point", "coordinates": [ 16.372194, 48.215972 ] } },
{ "type": "Feature", "properties": { "Station Name": "Albertgasse", "empty_slots": 16.0, "free_bikes": 12, "latitude": 48.210475, "longitude": 16.343998, "timestamp": "2023-03-05T20:59:41.191000Z", "Unique ID": "106776330" }, "geometry": { "type": "Point", "coordinates": [ 16.343998, 48.210475 ] } },
{ "type": "Feature", "properties": { "Station Name": "Strozzigasse", "empty_slots": 8.0, "free_bikes": 14, "latitude": 48.207744, "longitude": 16.349122, "timestamp": "2023-03-05T20:59:41.206000Z", "Unique ID": "111035034" }, "geometry": { "type": "Point", "coordinates": [ 16.349122, 48.207744 ] } },
{ "type": "Feature", "properties": { "Station Name": "Sensengasse", "empty_slots": 11.0, "free_bikes": 9, "latitude": 48.220335, "longitude": 16.35638, "timestamp": "2023-03-05T20:59:41.194000Z", "Unique ID": "107177260" }, "geometry": { "type": "Point", "coordinates": [ 16.35638, 48.220335 ] } },
{ "type": "Feature", "properties": { "Station Name": "Löwengasse", "empty_slots": 15.0, "free_bikes": 8, "latitude": 48.2057, "longitude": 16.395998, "timestamp": "2023-03-05T20:59:41.203000Z", "Unique ID": "110077149" }, "geometry": { "type": "Point", "coordinates": [ 16.395998, 48.2057 ] } },
{ "type": "Feature", "properties": { "Station Name": "Dänenstraße", "empty_slots": 18.0, "free_bikes": 32, "latitude": 48.23737, "longitude": 16.33448, "timestamp": "2023-03-05T20:59:41.170000Z", "Unique ID": "103319213" }, "geometry": { "type": "Point", "coordinates": [ 16.33448, 48.23737 ] } },
{ "type": "Feature", "properties": { "Station Name": "Am Schöpfwerk U", "empty_slots": 7.0, "free_bikes": 20, "latitude": 48.160951, "longitude": 16.324922, "timestamp": "2023-03-05T20:59:41.200000Z", "Unique ID": "110075845" }, "geometry": { "type": "Point", "coordinates": [ 16.324922, 48.160951 ] } },
{ "type": "Feature", "properties": { "Station Name": "Wassergasse", "empty_slots": 5.0, "free_bikes": 17, "latitude": 48.199234, "longitude": 16.394335, "timestamp": "2023-03-05T20:59:41.202000Z", "Unique ID": "110076854" }, "geometry": { "type": "Point", "coordinates": [ 16.394335, 48.199234 ] } },
{ "type": "Feature", "properties": { "Station Name": "Petrusgasse", "empty_slots": 0.0, "free_bikes": 28, "latitude": 48.192988, "longitude": 16.398459, "timestamp": "2023-03-05T20:59:41.202000Z", "Unique ID": "110076578" }, "geometry": { "type": "Point", "coordinates": [ 16.398459, 48.192988 ] } },
{ "type": "Feature", "properties": { "Station Name": "Kärntner Ring", "empty_slots": 9.0, "free_bikes": 8, "latitude": 48.202161, "longitude": 16.3713, "timestamp": "2023-03-05T20:59:41.204000Z", "Unique ID": "110420108" }, "geometry": { "type": "Point", "coordinates": [ 16.3713, 48.202161 ] } },
{ "type": "Feature", "properties": { "Station Name": "Stefan-Fadinger-Platz", "empty_slots": 4.0, "free_bikes": 8, "latitude": 48.168439, "longitude": 16.354862, "timestamp": "2023-03-05T20:59:41.207000Z", "Unique ID": "112972587" }, "geometry": { "type": "Point", "coordinates": [ 16.354862, 48.168439 ] } },
{ "type": "Feature", "properties": { "Station Name": "Hadersdorfer Hauptstraße", "empty_slots": null, "free_bikes": 4, "latitude": 48.20974, "longitude": 16.220256, "timestamp": "2023-03-05T20:59:41.124000Z", "Unique ID": "71510846" }, "geometry": { "type": "Point", "coordinates": [ 16.220256, 48.20974 ] } },
{ "type": "Feature", "properties": { "Station Name": "Oberdöbling S", "empty_slots": null, "free_bikes": 1, "latitude": 48.245057, "longitude": 16.344014, "timestamp": "2023-03-05T20:59:41.128000Z", "Unique ID": "71512698" }, "geometry": { "type": "Point", "coordinates": [ 16.344014, 48.245057 ] } },
{ "type": "Feature", "properties": { "Station Name": "Auf der Schmelz", "empty_slots": 5.0, "free_bikes": 15, "latitude": 48.203673, "longitude": 16.316414, "timestamp": "2023-03-05T20:59:41.212000Z", "Unique ID": "113852877" }, "geometry": { "type": "Point", "coordinates": [ 16.316414, 48.203673 ] } },
{ "type": "Feature", "properties": { "Station Name": "Ober St. Veit U", "empty_slots": 9.0, "free_bikes": 6, "latitude": 48.192296, "longitude": 16.274813, "timestamp": "2023-03-05T20:59:41.211000Z", "Unique ID": "113852718" }, "geometry": { "type": "Point", "coordinates": [ 16.274813, 48.192296 ] } },
{ "type": "Feature", "properties": { "Station Name": "Pötzleinsdorf", "empty_slots": null, "free_bikes": 4, "latitude": 48.241202, "longitude": 16.310658, "timestamp": "2023-03-05T20:59:41.214000Z", "Unique ID": "114190797" }, "geometry": { "type": "Point", "coordinates": [ 16.310658, 48.241202 ] } },
{ "type": "Feature", "properties": { "Station Name": "Kendlerstraße", "empty_slots": null, "free_bikes": 6, "latitude": 48.20359, "longitude": 16.30899, "timestamp": "2023-03-05T20:59:41.214000Z", "Unique ID": "114191041" }, "geometry": { "type": "Point", "coordinates": [ 16.30899, 48.20359 ] } },
{ "type": "Feature", "properties": { "Station Name": "Grimmgasse", "empty_slots": 9.0, "free_bikes": 10, "latitude": 48.186805, "longitude": 16.327679, "timestamp": "2023-03-05T20:59:41.212000Z", "Unique ID": "113853038" }, "geometry": { "type": "Point", "coordinates": [ 16.327679, 48.186805 ] } },
{ "type": "Feature", "properties": { "Station Name": "Parhamerplatz", "empty_slots": 3.0, "free_bikes": 26, "latitude": 48.216137, "longitude": 16.328093, "timestamp": "2023-03-05T20:59:41.213000Z", "Unique ID": "113853202" }, "geometry": { "type": "Point", "coordinates": [ 16.328093, 48.216137 ] } },
{ "type": "Feature", "properties": { "Station Name": "Friedensbrücke U4", "empty_slots": 5.0, "free_bikes": 11, "latitude": 48.226825, "longitude": 16.365311, "timestamp": "2023-03-05T20:59:41.079000Z", "Unique ID": "68584504" }, "geometry": { "type": "Point", "coordinates": [ 16.365311, 48.226825 ] } },
{ "type": "Feature", "properties": { "Station Name": "Obere Augartenstraße", "empty_slots": 5.0, "free_bikes": 9, "latitude": 48.223, "longitude": 16.374752, "timestamp": "2023-03-05T20:59:41.209000Z", "Unique ID": "113851857" }, "geometry": { "type": "Point", "coordinates": [ 16.374752, 48.223 ] } },
{ "type": "Feature", "properties": { "Station Name": "Dornerplatz", "empty_slots": 11.0, "free_bikes": 11, "latitude": 48.221223, "longitude": 16.33459, "timestamp": "2023-03-05T20:59:41.215000Z", "Unique ID": "114192844" }, "geometry": { "type": "Point", "coordinates": [ 16.33459, 48.221223 ] } },
{ "type": "Feature", "properties": { "Station Name": "Michelbeuern-AKH U", "empty_slots": 18.0, "free_bikes": 17, "latitude": 48.221804, "longitude": 16.343735, "timestamp": "2023-03-05T20:59:41.218000Z", "Unique ID": "114194532" }, "geometry": { "type": "Point", "coordinates": [ 16.343735, 48.221804 ] } },
{ "type": "Feature", "properties": { "Station Name": "Georg-Ehrlich-Weg", "empty_slots": null, "free_bikes": 2, "latitude": 48.261666, "longitude": 16.440139, "timestamp": "2023-03-05T20:59:41.224000Z", "Unique ID": "115738177" }, "geometry": { "type": "Point", "coordinates": [ 16.440139, 48.261666 ] } },
{ "type": "Feature", "properties": { "Station Name": "Johann-Nepomuk-Vogl-Platz", "empty_slots": 3.0, "free_bikes": 9, "latitude": 48.223756, "longitude": 16.337543, "timestamp": "2023-03-05T20:59:41.219000Z", "Unique ID": "114194796" }, "geometry": { "type": "Point", "coordinates": [ 16.337543, 48.223756 ] } },
{ "type": "Feature", "properties": { "Station Name": "Schmelzbrücke", "empty_slots": 2.0, "free_bikes": 19, "latitude": 48.19623, "longitude": 16.330241, "timestamp": "2023-03-05T20:59:41.217000Z", "Unique ID": "114193703" }, "geometry": { "type": "Point", "coordinates": [ 16.330241, 48.19623 ] } },
{ "type": "Feature", "properties": { "Station Name": "Ottakring S U", "empty_slots": 0.0, "free_bikes": 42, "latitude": 48.211841, "longitude": 16.311806, "timestamp": "2023-03-05T20:59:41.222000Z", "Unique ID": "115734657" }, "geometry": { "type": "Point", "coordinates": [ 16.311806, 48.211841 ] } },
{ "type": "Feature", "properties": { "Station Name": "Krieau U", "empty_slots": 16.0, "free_bikes": 14, "latitude": 48.214384, "longitude": 16.414663, "timestamp": "2023-03-05T20:59:41.221000Z", "Unique ID": "115734503" }, "geometry": { "type": "Point", "coordinates": [ 16.414663, 48.214384 ] } },
{ "type": "Feature", "properties": { "Station Name": "Nestroyplatz U", "empty_slots": 0.0, "free_bikes": 18, "latitude": 48.215879, "longitude": 16.38621, "timestamp": "2023-03-05T20:59:41.224000Z", "Unique ID": "115737941" }, "geometry": { "type": "Point", "coordinates": [ 16.38621, 48.215879 ] } },
{ "type": "Feature", "properties": { "Station Name": "Westbahnstraße / Schottenfeldgasse", "empty_slots": 11.0, "free_bikes": 4, "latitude": 48.201942, "longitude": 16.343241, "timestamp": "2023-03-05T20:59:41.220000Z", "Unique ID": "114195856" }, "geometry": { "type": "Point", "coordinates": [ 16.343241, 48.201942 ] } },
{ "type": "Feature", "properties": { "Station Name": "Vorgartenstraße U", "empty_slots": 9.0, "free_bikes": 25, "latitude": 48.223192, "longitude": 16.399795, "timestamp": "2023-03-05T20:59:41.221000Z", "Unique ID": "115734327" }, "geometry": { "type": "Point", "coordinates": [ 16.399795, 48.223192 ] } },
{ "type": "Feature", "properties": { "Station Name": "Messe-Prater U2", "empty_slots": 14.0, "free_bikes": 30, "latitude": 48.217295, "longitude": 16.406163, "timestamp": "2023-03-05T20:59:41.225000Z", "Unique ID": "116474003" }, "geometry": { "type": "Point", "coordinates": [ 16.406163, 48.217295 ] } },
{ "type": "Feature", "properties": { "Station Name": "Hernals S", "empty_slots": 1.0, "free_bikes": 19, "latitude": 48.22321, "longitude": 16.315256, "timestamp": "2023-03-05T20:59:41.216000Z", "Unique ID": "114193118" }, "geometry": { "type": "Point", "coordinates": [ 16.315256, 48.22321 ] } },
{ "type": "Feature", "properties": { "Station Name": "Hartmanngasse ", "empty_slots": 4.0, "free_bikes": 19, "latitude": 48.187123, "longitude": 16.363965, "timestamp": "2023-03-05T20:59:41.223000Z", "Unique ID": "115735030" }, "geometry": { "type": "Point", "coordinates": [ 16.363965, 48.187123 ] } },
{ "type": "Feature", "properties": { "Station Name": "Yppengasse", "empty_slots": 9.0, "free_bikes": 14, "latitude": 48.214561, "longitude": 16.335624, "timestamp": "2023-03-05T20:59:41.206000Z", "Unique ID": "112096063" }, "geometry": { "type": "Point", "coordinates": [ 16.335624, 48.214561 ] } },
{ "type": "Feature", "properties": { "Station Name": "Gumpendorfer Gürtel", "empty_slots": 8.0, "free_bikes": 18, "latitude": 48.18934, "longitude": 16.338321, "timestamp": "2023-03-05T20:59:41.227000Z", "Unique ID": "117148042" }, "geometry": { "type": "Point", "coordinates": [ 16.338321, 48.18934 ] } },
{ "type": "Feature", "properties": { "Station Name": "Urban-Loritz-Platz", "empty_slots": 0.0, "free_bikes": 23, "latitude": 48.201034, "longitude": 16.337727, "timestamp": "2023-03-05T20:59:41.229000Z", "Unique ID": "117148509" }, "geometry": { "type": "Point", "coordinates": [ 16.337727, 48.201034 ] } },
{ "type": "Feature", "properties": { "Station Name": "Burggasse-Stadthalle U", "empty_slots": 12.0, "free_bikes": 8, "latitude": 48.203657, "longitude": 16.337419, "timestamp": "2023-03-05T20:59:41.228000Z", "Unique ID": "117148276" }, "geometry": { "type": "Point", "coordinates": [ 16.337419, 48.203657 ] } },
{ "type": "Feature", "properties": { "Station Name": "Westbahnhof S U / Gerstnerstraße", "empty_slots": 4.0, "free_bikes": 28, "latitude": 48.195315, "longitude": 16.337344, "timestamp": "2023-03-05T20:59:41.231000Z", "Unique ID": "117149012" }, "geometry": { "type": "Point", "coordinates": [ 16.337344, 48.195315 ] } },
{ "type": "Feature", "properties": { "Station Name": "Rosensteingasse", "empty_slots": 1.0, "free_bikes": 20, "latitude": 48.21955, "longitude": 16.326586, "timestamp": "2023-03-05T20:59:41.227000Z", "Unique ID": "117147809" }, "geometry": { "type": "Point", "coordinates": [ 16.326586, 48.21955 ] } },
{ "type": "Feature", "properties": { "Station Name": "Hanusch Krankenhaus", "empty_slots": 0.0, "free_bikes": 18, "latitude": 48.19853, "longitude": 16.29393, "timestamp": "2023-03-05T20:59:41.230000Z", "Unique ID": "117148697" }, "geometry": { "type": "Point", "coordinates": [ 16.29393, 48.19853 ] } },
{ "type": "Feature", "properties": { "Station Name": "Wieningerplatz", "empty_slots": 6.0, "free_bikes": 16, "latitude": 48.194063, "longitude": 16.31846, "timestamp": "2023-03-05T20:59:41.231000Z", "Unique ID": "117149230" }, "geometry": { "type": "Point", "coordinates": [ 16.31846, 48.194063 ] } },
{ "type": "Feature", "properties": { "Station Name": "Kundratstraße", "empty_slots": 0.0, "free_bikes": 17, "latitude": 48.176146, "longitude": 16.355224, "timestamp": "2023-03-05T20:59:41.235000Z", "Unique ID": "117632826" }, "geometry": { "type": "Point", "coordinates": [ 16.355224, 48.176146 ] } },
{ "type": "Feature", "properties": { "Station Name": "Reumannplatz U", "empty_slots": 2.0, "free_bikes": 17, "latitude": 48.172937, "longitude": 16.378663, "timestamp": "2023-03-05T20:59:41.238000Z", "Unique ID": "117753498" }, "geometry": { "type": "Point", "coordinates": [ 16.378663, 48.172937 ] } },
{ "type": "Feature", "properties": { "Station Name": "Plunkergasse", "empty_slots": 6.0, "free_bikes": 17, "latitude": 48.199892, "longitude": 16.327151, "timestamp": "2023-03-05T20:59:41.233000Z", "Unique ID": "117329675" }, "geometry": { "type": "Point", "coordinates": [ 16.327151, 48.199892 ] } },
{ "type": "Feature", "properties": { "Station Name": "Kagran U1", "empty_slots": 11.0, "free_bikes": 21, "latitude": 48.244086, "longitude": 16.433594, "timestamp": "2023-03-05T20:59:41.103000Z", "Unique ID": "68594176" }, "geometry": { "type": "Point", "coordinates": [ 16.433594, 48.244086 ] } },
{ "type": "Feature", "properties": { "Station Name": "Brestelgasse", "empty_slots": 3.0, "free_bikes": 10, "latitude": 48.214001, "longitude": 16.330753, "timestamp": "2023-03-05T20:59:41.239000Z", "Unique ID": "117753757" }, "geometry": { "type": "Point", "coordinates": [ 16.330753, 48.214001 ] } },
{ "type": "Feature", "properties": { "Station Name": "Karmeliterplatz", "empty_slots": 0.0, "free_bikes": 16, "latitude": 48.215683, "longitude": 16.379649, "timestamp": "2023-03-05T20:59:41.237000Z", "Unique ID": "117753032" }, "geometry": { "type": "Point", "coordinates": [ 16.379649, 48.215683 ] } },
{ "type": "Feature", "properties": { "Station Name": "Selzergasse", "empty_slots": 4.0, "free_bikes": 18, "latitude": 48.196802, "longitude": 16.323095, "timestamp": "2023-03-05T20:59:41.234000Z", "Unique ID": "117329809" }, "geometry": { "type": "Point", "coordinates": [ 16.323095, 48.196802 ] } },
{ "type": "Feature", "properties": { "Station Name": "Nussdorfer Straße U", "empty_slots": 11.0, "free_bikes": 6, "latitude": 48.231717, "longitude": 16.353124, "timestamp": "2023-03-05T20:59:41.241000Z", "Unique ID": "119161164" }, "geometry": { "type": "Point", "coordinates": [ 16.353124, 48.231717 ] } },
{ "type": "Feature", "properties": { "Station Name": "Palffygasse", "empty_slots": 6.0, "free_bikes": 19, "latitude": 48.217217, "longitude": 16.337131, "timestamp": "2023-03-05T20:59:41.243000Z", "Unique ID": "119164521" }, "geometry": { "type": "Point", "coordinates": [ 16.337131, 48.217217 ] } },
{ "type": "Feature", "properties": { "Station Name": "Josefstädter Straße U", "empty_slots": 9.0, "free_bikes": 13, "latitude": 48.212106, "longitude": 16.33912, "timestamp": "2023-03-05T20:59:41.249000Z", "Unique ID": "119199656" }, "geometry": { "type": "Point", "coordinates": [ 16.33912, 48.212106 ] } },
{ "type": "Feature", "properties": { "Station Name": "Gersthof S", "empty_slots": 8.0, "free_bikes": 18, "latitude": 48.231029, "longitude": 16.329505, "timestamp": "2023-03-05T20:59:41.244000Z", "Unique ID": "119164831" }, "geometry": { "type": "Point", "coordinates": [ 16.329505, 48.231029 ] } },
{ "type": "Feature", "properties": { "Station Name": "Fröbelgasse", "empty_slots": 8.0, "free_bikes": 16, "latitude": 48.205827, "longitude": 16.330869, "timestamp": "2023-03-05T20:59:41.238000Z", "Unique ID": "117753367" }, "geometry": { "type": "Point", "coordinates": [ 16.330869, 48.205827 ] } },
{ "type": "Feature", "properties": { "Station Name": "Markgraf-Rüdiger Straße", "empty_slots": 9.0, "free_bikes": 19, "latitude": 48.202473, "longitude": 16.329897, "timestamp": "2023-03-05T20:59:41.232000Z", "Unique ID": "117329509" }, "geometry": { "type": "Point", "coordinates": [ 16.329897, 48.202473 ] } },
{ "type": "Feature", "properties": { "Station Name": "Liesing S", "empty_slots": 3.0, "free_bikes": 10, "latitude": 48.134253, "longitude": 16.283428, "timestamp": "2023-03-05T20:59:41.149000Z", "Unique ID": "87590679" }, "geometry": { "type": "Point", "coordinates": [ 16.283428, 48.134253 ] } },
{ "type": "Feature", "properties": { "Station Name": "Kettenbrückengasse U ", "empty_slots": 2.0, "free_bikes": 12, "latitude": 48.196328, "longitude": 16.357468, "timestamp": "2023-03-05T20:59:41.252000Z", "Unique ID": "120664252" }, "geometry": { "type": "Point", "coordinates": [ 16.357468, 48.196328 ] } },
{ "type": "Feature", "properties": { "Station Name": "Elterleinplatz", "empty_slots": 5.0, "free_bikes": 9, "latitude": 48.218034, "longitude": 16.332358, "timestamp": "2023-03-05T20:59:41.241000Z", "Unique ID": "119161712" }, "geometry": { "type": "Point", "coordinates": [ 16.332358, 48.218034 ] } },
{ "type": "Feature", "properties": { "Station Name": "Siebensternplatz", "empty_slots": 13.0, "free_bikes": 5, "latitude": 48.202223, "longitude": 16.352486, "timestamp": "2023-03-05T20:59:41.245000Z", "Unique ID": "119165301" }, "geometry": { "type": "Point", "coordinates": [ 16.352486, 48.202223 ] } },
{ "type": "Feature", "properties": { "Station Name": "Rosensteingasse / Blumengasse", "empty_slots": 1.0, "free_bikes": 21, "latitude": 48.222824, "longitude": 16.328474, "timestamp": "2023-03-05T20:59:41.247000Z", "Unique ID": "119166015" }, "geometry": { "type": "Point", "coordinates": [ 16.328474, 48.222824 ] } },
{ "type": "Feature", "properties": { "Station Name": "Thaliastraße U", "empty_slots": 9.0, "free_bikes": 14, "latitude": 48.207995, "longitude": 16.337984, "timestamp": "2023-03-05T20:59:41.240000Z", "Unique ID": "117753925" }, "geometry": { "type": "Point", "coordinates": [ 16.337984, 48.207995 ] } },
{ "type": "Feature", "properties": { "Station Name": "Dresdner Straße U", "empty_slots": 8.0, "free_bikes": 18, "latitude": 48.237487, "longitude": 16.380363, "timestamp": "2023-03-05T20:59:41.250000Z", "Unique ID": "119468010" }, "geometry": { "type": "Point", "coordinates": [ 16.380363, 48.237487 ] } },
{ "type": "Feature", "properties": { "Station Name": "Reinprechtsdorfer Brücke", "empty_slots": 7.0, "free_bikes": 13, "latitude": 48.189633, "longitude": 16.351143, "timestamp": "2023-03-05T20:59:41.245000Z", "Unique ID": "119165095" }, "geometry": { "type": "Point", "coordinates": [ 16.351143, 48.189633 ] } },
{ "type": "Feature", "properties": { "Station Name": "Westbahnhof S U / Felberstraße", "empty_slots": 10.0, "free_bikes": 28, "latitude": 48.197958, "longitude": 16.3377, "timestamp": "2023-03-05T20:59:41.234000Z", "Unique ID": "117329972" }, "geometry": { "type": "Point", "coordinates": [ 16.3377, 48.197958 ] } },
{ "type": "Feature", "properties": { "Station Name": "Neubaugasse U", "empty_slots": 0.0, "free_bikes": 18, "latitude": 48.198527, "longitude": 16.35093, "timestamp": "2023-03-05T20:59:41.256000Z", "Unique ID": "120666709" }, "geometry": { "type": "Point", "coordinates": [ 16.35093, 48.198527 ] } },
{ "type": "Feature", "properties": { "Station Name": "Jägerstraße U", "empty_slots": 9.0, "free_bikes": 13, "latitude": 48.235062, "longitude": 16.369919, "timestamp": "2023-03-05T20:59:41.251000Z", "Unique ID": "119471185" }, "geometry": { "type": "Point", "coordinates": [ 16.369919, 48.235062 ] } },
{ "type": "Feature", "properties": { "Station Name": "Mayerhofgasse", "empty_slots": 5.0, "free_bikes": 10, "latitude": 48.192892, "longitude": 16.367069, "timestamp": "2023-03-05T20:59:41.219000Z", "Unique ID": "114195490" }, "geometry": { "type": "Point", "coordinates": [ 16.367069, 48.192892 ] } },
{ "type": "Feature", "properties": { "Station Name": "Friedrich-Engels-Platz", "empty_slots": 0.0, "free_bikes": 25, "latitude": 48.244111, "longitude": 16.379304, "timestamp": "2023-03-05T20:59:41.249000Z", "Unique ID": "119467705" }, "geometry": { "type": "Point", "coordinates": [ 16.379304, 48.244111 ] } },
{ "type": "Feature", "properties": { "Station Name": "Traisengasse S", "empty_slots": 5.0, "free_bikes": 17, "latitude": 48.233821, "longitude": 16.383263, "timestamp": "2023-03-05T20:59:41.252000Z", "Unique ID": "119471390" }, "geometry": { "type": "Point", "coordinates": [ 16.383263, 48.233821 ] } },
{ "type": "Feature", "properties": { "Station Name": "Marschallplatz", "empty_slots": 0.0, "free_bikes": 15, "latitude": 48.165635, "longitude": 16.303146, "timestamp": "2023-03-05T20:59:41.210000Z", "Unique ID": "113852535" }, "geometry": { "type": "Point", "coordinates": [ 16.303146, 48.165635 ] } },
{ "type": "Feature", "properties": { "Station Name": "Hütteldorf  S U", "empty_slots": 3.0, "free_bikes": 30, "latitude": 48.198076, "longitude": 16.261813, "timestamp": "2023-03-05T20:59:41.166000Z", "Unique ID": "103318155" }, "geometry": { "type": "Point", "coordinates": [ 16.261813, 48.198076 ] } },
{ "type": "Feature", "properties": { "Station Name": "Loquaipark", "empty_slots": 4.0, "free_bikes": 15, "latitude": 48.194597, "longitude": 16.349121, "timestamp": "2023-03-05T20:59:41.226000Z", "Unique ID": "117147572" }, "geometry": { "type": "Point", "coordinates": [ 16.349121, 48.194597 ] } },
{ "type": "Feature", "properties": { "Station Name": "Gußhausstraße / Argentinierstraße", "empty_slots": 4.0, "free_bikes": 17, "latitude": 48.197287, "longitude": 16.371572, "timestamp": "2023-03-05T20:59:41.209000Z", "Unique ID": "113852160" }, "geometry": { "type": "Point", "coordinates": [ 16.371572, 48.197287 ] } },
{ "type": "Feature", "properties": { "Station Name": "Schottenring U /Herminengasse", "empty_slots": 14.0, "free_bikes": 4, "latitude": 48.217784, "longitude": 16.373083, "timestamp": "2023-03-05T20:59:41.248000Z", "Unique ID": "119166984" }, "geometry": { "type": "Point", "coordinates": [ 16.373083, 48.217784 ] } },
{ "type": "Feature", "properties": { "Station Name": "Turnergasse", "empty_slots": 8.0, "free_bikes": 10, "latitude": 48.193083, "longitude": 16.334103, "timestamp": "2023-03-05T20:59:41.258000Z", "Unique ID": "120667255" }, "geometry": { "type": "Point", "coordinates": [ 16.334103, 48.193083 ] } },
{ "type": "Feature", "properties": { "Station Name": "Brünnlbadgasse", "empty_slots": 6.0, "free_bikes": 5, "latitude": 48.215262, "longitude": 16.346523, "timestamp": "2023-03-05T20:59:41.208000Z", "Unique ID": "112972732" }, "geometry": { "type": "Point", "coordinates": [ 16.346523, 48.215262 ] } },
{ "type": "Feature", "properties": { "Station Name": "Museumsquartier U", "empty_slots": 2.0, "free_bikes": 32, "latitude": 48.202344, "longitude": 16.361117, "timestamp": "2023-03-05T20:59:41.257000Z", "Unique ID": "120666888" }, "geometry": { "type": "Point", "coordinates": [ 16.361117, 48.202344 ] } },
{ "type": "Feature", "properties": { "Station Name": "Schönbornpark", "empty_slots": 13.0, "free_bikes": 9, "latitude": 48.213164, "longitude": 16.351095, "timestamp": "2023-03-05T20:59:41.185000Z", "Unique ID": "103320500" }, "geometry": { "type": "Point", "coordinates": [ 16.351095, 48.213164 ] } },
{ "type": "Feature", "properties": { "Station Name": "Frankhplatz", "empty_slots": 12.0, "free_bikes": 9, "latitude": 48.215164, "longitude": 16.355172, "timestamp": "2023-03-05T20:59:41.078000Z", "Unique ID": "68584195" }, "geometry": { "type": "Point", "coordinates": [ 16.355172, 48.215164 ] } },
{ "type": "Feature", "properties": { "Station Name": "Meidling S U", "empty_slots": 9.0, "free_bikes": 13, "latitude": 48.175247, "longitude": 16.331659, "timestamp": "2023-03-05T20:59:41.243000Z", "Unique ID": "119163086" }, "geometry": { "type": "Point", "coordinates": [ 16.331659, 48.175247 ] } },
{ "type": "Feature", "properties": { "Station Name": "Canisiusgasse", "empty_slots": 8.0, "free_bikes": 14, "latitude": 48.229011, "longitude": 16.354359, "timestamp": "2023-03-05T20:59:41.242000Z", "Unique ID": "119161997" }, "geometry": { "type": "Point", "coordinates": [ 16.354359, 48.229011 ] } },
{ "type": "Feature", "properties": { "Station Name": "Ceija-Stojka-Platz", "empty_slots": 9.0, "free_bikes": 2, "latitude": 48.207702, "longitude": 16.342199, "timestamp": "2023-03-05T20:59:41.073000Z", "Unique ID": "68583368" }, "geometry": { "type": "Point", "coordinates": [ 16.342199, 48.207702 ] } },
{ "type": "Feature", "properties": { "Station Name": "Arthaberplatz", "empty_slots": 8.0, "free_bikes": 16, "latitude": 48.173447, "longitude": 16.371831, "timestamp": "2023-03-05T20:59:41.236000Z", "Unique ID": "117633648" }, "geometry": { "type": "Point", "coordinates": [ 16.371831, 48.173447 ] } },
{ "type": "Feature", "properties": { "Station Name": "Siebenbrunnenplatz", "empty_slots": 16.0, "free_bikes": 4, "latitude": 48.184975, "longitude": 16.352986, "timestamp": "2023-03-05T20:59:41.246000Z", "Unique ID": "119165695" }, "geometry": { "type": "Point", "coordinates": [ 16.352986, 48.184975 ] } },
{ "type": "Feature", "properties": { "Station Name": "Aumannplatz", "empty_slots": 3.0, "free_bikes": 19, "latitude": 48.228561, "longitude": 16.335125, "timestamp": "2023-03-05T20:59:41.253000Z", "Unique ID": "120665264" }, "geometry": { "type": "Point", "coordinates": [ 16.335125, 48.228561 ] } },
{ "type": "Feature", "properties": { "Station Name": "Längenfeldgasse U", "empty_slots": 14.0, "free_bikes": 10, "latitude": 48.18424, "longitude": 16.333886, "timestamp": "2023-03-05T20:59:41.254000Z", "Unique ID": "120665659" }, "geometry": { "type": "Point", "coordinates": [ 16.333886, 48.18424 ] } },
{ "type": "Feature", "properties": { "Station Name": "Schottentor U", "empty_slots": 4.0, "free_bikes": 31, "latitude": 48.214558, "longitude": 16.361492, "timestamp": "2023-03-05T20:59:41.255000Z", "Unique ID": "120666475" }, "geometry": { "type": "Point", "coordinates": [ 16.361492, 48.214558 ] } },
{ "type": "Feature", "properties": { "Station Name": "Johnstrasse U", "empty_slots": 5.0, "free_bikes": 17, "latitude": 48.19834, "longitude": 16.318975, "timestamp": "2023-03-05T20:59:41.257000Z", "Unique ID": "120667066" }, "geometry": { "type": "Point", "coordinates": [ 16.318975, 48.19834 ] } },
{ "type": "Feature", "properties": { "Station Name": "Kutschkergasse", "empty_slots": 6.0, "free_bikes": 10, "latitude": 48.225707, "longitude": 16.344196, "timestamp": "2023-03-05T20:59:41.259000Z", "Unique ID": "136959192" }, "geometry": { "type": "Point", "coordinates": [ 16.344196, 48.225707 ] } },
{ "type": "Feature", "properties": { "Station Name": "Brückengasse", "empty_slots": 13.0, "free_bikes": 9, "latitude": 48.19126, "longitude": 16.347918, "timestamp": "2023-03-05T20:59:41.260000Z", "Unique ID": "141457598" }, "geometry": { "type": "Point", "coordinates": [ 16.347918, 48.19126 ] } },
{ "type": "Feature", "properties": { "Station Name": "Stadion U", "empty_slots": 3.0, "free_bikes": 18, "latitude": 48.210893, "longitude": 16.420795, "timestamp": "2023-03-05T20:59:41.260000Z", "Unique ID": "140182214" }, "geometry": { "type": "Point", "coordinates": [ 16.420795, 48.210893 ] } },
{ "type": "Feature", "properties": { "Station Name": "Praterstern Ausstellungsstraße", "empty_slots": 5.0, "free_bikes": 20, "latitude": 48.21785, "longitude": 16.395483, "timestamp": "2023-03-05T20:59:41.141000Z", "Unique ID": "84044298" }, "geometry": { "type": "Point", "coordinates": [ 16.395483, 48.21785 ] } }
]
}
